City_ID,City,Country,Max Temp,Current Description,Lat,Lng,Hotel Name
0,Tefe,BR,86.0,broken clouds,-3.3542,-64.7114,Aracati Hotel
1,Faanui,PF,81.99,scattered clouds,-16.4833,-151.75,Bora-Bora Pearl Beach Resort & Spa
2,Georgetown,MY,82.4,few clouds,5.4112,100.3354,Cititel Penang
4,Vaini,TO,75.2,light rain,-21.2,-175.2,Keleti Beach Resort
6,Cayenne,GF,87.8,scattered clouds,4.9333,-52.3333,Hôtel Le Dronmi
7,Rikitea,PF,80.33,moderate rain,-23.1203,-134.9692,Pension Maro'i
11,Carnarvon,AU,78.8,clear sky,-24.8667,113.6333,Hospitality Carnarvon
15,Kununurra,AU,75.2,moderate rain,-15.7667,128.7333,Hotel Kununurra
21,Busselton,AU,70.66,overcast clouds,-33.65,115.3333,Observatory Guest House
23,Arraial Do Cabo,BR,89.6,few clouds,-22.9661,-42.0278,Pousada Porto Praia
26,Saint-Philippe,RE,77.0,light rain,-21.3585,55.7679,"Chambres d'hôte ""La Trinité"""
37,Cabo San Lucas,MX,75.99,clear sky,22.8909,-109.9124,Hotel Tesoro Los Cabos
44,Castro,BR,73.53,broken clouds,-24.7911,-50.0119,CHACARA BAILLY
45,Coahuayana,MX,78.8,scattered clouds,18.7333,-103.6833,El rranchito michuacan de ocampos
47,Hithadhoo,MV,82.76,overcast clouds,-0.6,73.0833,Scoop Guest House
49,Puerto Ayora,EC,82.4,few clouds,-0.7393,-90.3518,Finch Bay Galapagos Hotel
50,Ughelli,NG,80.85,overcast clouds,5.4899,6.0074,Prestige Hotel
53,Quatre Cocos,MU,78.8,light rain,-20.2078,57.7625,Emeraude Beach Attitude Hotel
63,Paita,PE,87.8,clear sky,-5.0892,-81.1144,Hotel Náutico de Paita
65,Mogadishu,SO,80.85,clear sky,2.0371,45.3438,Olympic Hotel
72,Najran,SA,84.2,clear sky,17.4924,44.1277,محمد هادي ال فطيح
73,Mazagao,BR,86.0,broken clouds,-0.115,-51.2894,Recanto dos Ferreiras
77,Tual,ID,83.66,scattered clouds,-5.6667,132.75,Grand Vilia Hotel
78,Saint-Joseph,RE,77.0,light rain,-21.3667,55.6167,"""Plantation Bed and Breakfast"
79,Sur,OM,80.06,clear sky,22.5667,59.5289,Sur Plaza Hotel
81,Santa Maria,BR,80.6,few clouds,-29.6842,-53.8069,Hotel Morotin
83,Grand Gaube,MU,77.0,clear sky,-20.0064,57.6608,Veranda Paul et Virginie Hotel & Spa
87,Port Hedland,AU,73.4,scattered clouds,-20.3167,118.5667,The Esplanade Hotel
89,Cockburn Town,TC,80.6,few clouds,21.4612,-71.1419,Osprey Beach Hotel
90,Praia,CV,78.8,clear sky,14.9215,-23.5087,LT Aparthotel
91,Butaritari,KI,80.98,overcast clouds,3.0707,172.7902,Isles Sunset Lodge
93,Chincha Alta,PE,75.99,clear sky,-13.4099,-76.1323,Buena Vista Casa Hotel
94,Porto Uniao,BR,77.05,overcast clouds,-26.2381,-51.0783,Hotel Flórida
96,Axim,GH,82.72,overcast clouds,4.8699,-2.2405,AXIM BEACH RESORT AND SPA
99,Kavaratti,IN,83.35,clear sky,10.5669,72.642,Hotels in Lakshadweep Islands
103,Victoria,HK,75.0,clear sky,22.2855,114.1577,Mini Hotel Central
106,Mahebourg,MU,78.8,light rain,-20.4081,57.7,Shandrani Beachcomber Resort & Spa
118,Tabou,CI,82.42,light rain,4.423,-7.3528,hotêl doufoulougou
119,Bengkulu,ID,76.86,overcast clouds,-3.8004,102.2655,Grage Hotel Bengkulu
120,Isangel,VU,75.76,moderate rain,-19.55,169.2667,Volcano Sea View Tree House
124,Chuy,UY,71.6,clear sky,-33.6971,-53.4616,Nuevo Hotel Plaza
127,Poli,TZ,82.4,scattered clouds,-3.3333,36.8,Urafiki House
128,Alyangula,AU,81.75,broken clouds,-13.8483,136.4192,Groote Eylandt Lodge
135,Atuona,PF,80.1,scattered clouds,-9.8,-139.0333,Villa Enata
138,San Andres,CO,84.2,few clouds,12.5847,-81.7006,Hotel Arena Blanca
140,Atar,MR,93.02,clear sky,20.5169,-13.0499,Oumou Elghoura
144,Urucui,BR,83.73,heavy intensity rain,-7.2294,-44.5561,Hotel Premium Piauí
146,Mitsamiouli,KM,83.43,broken clouds,-11.3847,43.2844,Foyer ADM
149,Chicama,PE,73.4,overcast clouds,-7.8447,-79.1469,Chicama Me Gusta
153,Hualmay,PE,76.96,scattered clouds,-11.0964,-77.6139,Hotel Villa Kitzia Huacho
157,Meulaboh,ID,77.94,overcast clouds,4.1363,96.1285,Kost Pria
161,Narasannapeta,IN,75.09,scattered clouds,18.4167,84.05,G.lingaraju home
162,Itarema,BR,85.91,scattered clouds,-2.9248,-39.9167,"Sea Lounge! Bar, Club & Restaurant"
163,Labuhan,ID,80.13,moderate rain,-6.8844,112.2051,PT PPI Lamongan Tambak C
168,Bajos De Haina,DO,84.2,scattered clouds,18.4154,-70.0332,Familia García Santana
169,Kavieng,PG,82.33,light rain,-2.5744,150.7967,Nusa Island Retreat
170,Pathein,MM,74.82,broken clouds,16.7833,94.7333,New Pammawaddy Hotel
172,Adeje,ES,71.01,few clouds,28.1227,-16.726,Gran Tacande Wellness & Relax
175,Alofi,NU,75.2,light rain,-19.0595,-169.9187,Taloa Heights
177,Isla Mujeres,MX,82.4,broken clouds,21.2311,-86.73100000000001,Hotel La Joya Isla Mujeres
179,Lat Yao,TH,84.0,clear sky,15.751,99.7893,ห้างหุ้นส่วนจำกัด ลาดยาวการเกษตร
180,Japura,ID,75.04,broken clouds,-0.3167,102.35,Rumah mbah Jamah
181,Gharghoda,IN,82.0,broken clouds,22.1667,83.35,Yadav Hotel
186,Port Augusta,AU,71.6,light rain,-32.5,137.7667,Majestic Oasis Apartments
188,Kalmunai,LK,76.17,overcast clouds,7.4167,81.8167,VS Villa
189,Capinzal,BR,87.3,clear sky,-27.3436,-51.6119,Hotel Baiolim
190,Nicoya,CR,87.8,scattered clouds,10.1483,-85.45200000000001,Guayacan Real
191,La Macarena,CO,86.76,overcast clouds,2.1837,-73.7849,Hotel Punto Verde
195,Dingle,PH,77.16,few clouds,10.9995,122.6711,SEGAYA PROPERTY
196,Sinnamary,GF,81.45,scattered clouds,5.3833,-52.95,ALETHEIA Appartement Sinnamary
197,Salalah,OM,80.6,clear sky,17.0151,54.0924,HAMDAN PLAZA HOTEL SALALAH
198,Waddan,LY,80.83,clear sky,29.1614,16.139,محل الشريف محمد العايب
206,Gizo,SB,82.15,broken clouds,-8.103,156.8419,Imagination Island
208,Avarua,CK,77.0,overcast clouds,-21.2078,-159.775,Paradise Inn
211,Brandon,US,71.01,scattered clouds,27.9378,-82.2859,Brandon Motor Lodge
213,Cidreira,BR,75.72,broken clouds,-30.1811,-50.2056,Hotel Castelo
217,Phan Thiet,VN,75.67,broken clouds,10.9333,108.1,Hotel Saigon-PT
218,Mount Isa,AU,82.4,light rain,-20.7333,139.5,ibis Styles Mt Isa Verona
219,Matara,LK,77.61,overcast clouds,5.9485,80.5353,Amaloh Boutique Resort
221,Tabuk,PH,72.93,broken clouds,17.4189,121.4443,Golden Berries Hotel and Convention
222,Lorengau,PG,80.65,few clouds,-2.0226,147.2712,Lorengau Harbourside Hotel
225,Pombas,CV,77.0,scattered clouds,17.1503,-25.0201,POUSADA O RECANTO
226,Hermosillo,MX,75.0,clear sky,29.0667,-110.9667,ibis Hermosillo
227,Macaubas,BR,88.86,broken clouds,-13.0194,-42.6986,Macaúbas Palace Hotel
228,Pisco,PE,75.99,clear sky,-13.7,-76.2167,Hotel San Isidro Oficial
230,Muli,MV,83.52,broken clouds,2.9167,73.5667,Medhufushi Island Resort
231,Bambous Virieux,MU,78.8,light rain,-20.3428,57.7575,Casa Tia Villa
247,Panaba,MX,78.82,broken clouds,21.2833,-88.2667,Posada rosario
250,Namibe,AO,74.26,broken clouds,-15.1961,12.1522,Hotel Chik Chik Namibe
251,Pochutla,MX,90.0,clear sky,15.7432,-96.4661,Hotel Posada San Jose
252,Omboue,GA,77.7,overcast clouds,-1.5746,9.2618,Hotel Olako
255,Ciudad Bolivar,VE,92.57,clear sky,8.1222,-63.5497,Hotel Edi
256,Hobyo,SO,81.72,broken clouds,5.3505,48.5268,Halane Hotel and Restaurent
258,Cairns,AU,75.2,scattered clouds,-16.9167,145.7667,Mantra Trilogy Cairns
262,Galdar,ES,71.6,few clouds,28.147,-15.6502,Hostel Guide
267,George Town,MY,82.4,few clouds,5.4112,100.3354,Cititel Penang
269,Khandwa,IN,75.38,few clouds,21.8333,76.3333,Hotel kesar residency
271,Registro,BR,78.3,light rain,-24.4875,-47.8436,Régis Hotel
273,Placido De Castro,BR,77.94,overcast clouds,-10.3353,-67.1856,Hotel Carioca
274,Xuddur,SO,85.21,scattered clouds,4.1213,43.8894,Banjanay Hotel
278,Celestun,MX,76.44,clear sky,20.8667,-90.4,Posada Lilia
281,Pimentel,PE,82.4,clear sky,-6.8367,-79.9342,Casona Del Muelle
283,Urbano Santos,BR,83.7,light rain,-3.2078,-43.4036,Pousada Santa Dulce
285,Acarau,BR,85.28,broken clouds,-2.8856,-40.12,castelo pizzaria
290,Biltine,TD,94.01,broken clouds,14.5333,20.9167,Hôtel Trois Étoiles de Biltine
295,Lampang,TH,88.0,clear sky,18.3333,99.5,Mrs Luis Guest House
298,Bac Lieu,VN,78.1,scattered clouds,9.285,105.7244,Khách sạn Sài Gòn Bạc Liêu
299,Sao Joao Da Barra,BR,87.8,few clouds,-21.6403,-41.0511,Pousada Porto De Canoas
306,Tacna,PE,75.2,few clouds,-18.0056,-70.2483,Hotel Colón Inn
307,Tambau,BR,86.0,scattered clouds,-21.705,-47.2744,Estalagem do Sobreira
311,Caravelas,BR,84.81,broken clouds,-17.7125,-39.2481,Pousada dos Navegantes
317,Wad Rawah,SD,90.75,scattered clouds,15.1603,33.1397,ود الترابي
318,Mbanza-Ngungu,CD,73.22,scattered clouds,-5.25,14.8667,Hotel Full Business
324,Santo Cristo,PH,77.0,broken clouds,15.2907,120.8842,Crave & clouds vape shop
326,Vila Velha,BR,87.01,few clouds,-20.3297,-40.2925,Quality Suites Vila Velha
327,Miri,MY,78.8,scattered clouds,4.4148,114.0089,"Mega Hotel, Miri"
329,Honiara,SB,77.59,broken clouds,-9.4333,159.95,Heritage Park Hotel
333,Buri,BR,78.71,broken clouds,-23.7975,-48.5928,Hotel Aro
334,Sao Filipe,CV,74.25,clear sky,14.8961,-24.4956,Tortuga B&B
335,Carutapera,BR,82.13,broken clouds,-1.195,-46.02,Lidera
336,Minab,IR,77.0,few clouds,27.1467,57.0801,Bam campground
344,San Carlos De Bariloche,AR,70.0,few clouds,-41.1456,-71.3082,Hotel Patagonia
345,Santa Rosa,PH,82.99,few clouds,14.3122,121.1114,Erlyn’s Sta Rosa City Home
346,Altamira,BR,84.2,broken clouds,-3.2033,-52.2064,Requinte Hotel
347,Bathsheba,BB,84.2,scattered clouds,13.2167,-59.5167,Atlantis Hotel
349,Padang,ID,77.0,light rain,-0.9492,100.3543,Mercure Padang
350,Loa Janan,ID,75.16,broken clouds,-0.583,117.095,Pondok hijau 2A
351,Souillac,MU,78.8,light rain,-20.5167,57.5167,Shanti Maurice Resort & Spa
352,Tarakan,ID,81.28,overcast clouds,3.3,117.6333,RedDoorz Syariah near Taman Berlabuh Tarakan
356,San Jose De Rio Tinto,HN,84.2,broken clouds,14.9333,-85.7,PARQUE ECOTURISTICO QUILIZ
357,Waingapu,ID,78.87,overcast clouds,-9.6567,120.2641,Pondok Wisata Elim
358,Codajas,BR,86.72,broken clouds,-3.8367,-62.0569,Hotel Tamires
360,Itabirito,BR,84.2,broken clouds,-20.2533,-43.8014,Aredes Apart Hotel
371,Oistins,BB,84.2,scattered clouds,13.0667,-59.5333,Butterfly Beach Hotel
374,Xalpatlahuac,MX,75.69,clear sky,17.4667,-98.6167,Hotel Villarreal
375,Lodwar,KE,91.56,broken clouds,3.1191,35.5973,Turkwel Lodge
378,Lima,PE,78.8,clear sky,-12.0432,-77.0282,Gran Hotel Bolivar Lima
385,Namatanai,PG,79.86,clear sky,-3.6667,152.4333,Namatanai Hotel
389,Moron,AR,73.99,scattered clouds,-34.6534,-58.6198,Hotel Morón
390,Rawson,AR,79.57,clear sky,-43.3002,-65.1023,Hosteria Sampedro
391,Yangjiang,CN,72.3,clear sky,21.85,111.9667,HUALUXE Yangjiang City Center
392,Cam Ranh,VN,78.8,scattered clouds,11.9214,109.1591,OYO 598 Peony Hotel
395,Bahia Blanca,AR,77.27,clear sky,-38.7196,-62.2724,Hotel Argos
396,Guarapari,BR,87.01,few clouds,-20.6667,-40.4975,Hotel Porto do Sol
398,San Isidro,PE,78.8,clear sky,-12.1167,-77.05,Soul Mate-Inn
400,Tagbac,PH,78.8,broken clouds,7.0889999999999995,125.1567,Sitio Maupot Family Resort
403,Manzanillo,CU,85.59,scattered clouds,20.3433,-77.1167,"HOSTAL ""THE YELLOW HOUSE"""
404,Mandapam,IN,81.88,scattered clouds,9.2833,79.1167,Tanvi Chachaa Chalet
405,Pipar,IN,76.8,broken clouds,26.3856,73.5378,Aadam Mansion
408,San Cristobal,VE,75.2,fog,7.7669,-72.225,Posada Villaven C.A.
409,Port-Gentil,GA,84.2,light rain,-0.7193,8.7815,Fengshui Residence
411,Presidente Epitacio,BR,86.18,broken clouds,-21.7633,-52.1156,Hotel Itaverá
412,Port Keats,AU,75.24,light rain,-14.25,129.55,TDC Village (Hundred Man Camp)
418,Yeppoon,AU,75.2,broken clouds,-23.1333,150.7333,Villa Mar Colina
419,Kulhudhuffushi,MV,83.03,scattered clouds,6.6221,73.07,Haajy Guest House 1
422,Richards Bay,ZA,75.29,light rain,-28.783,32.0377,BON Hotel Waterfront Richards Bay
423,Ambon,ID,81.72,broken clouds,-3.6954,128.1814,Swiss-Belhotel Ambon
424,Benguela,AO,80.04,few clouds,-12.5763,13.4055,Hotel Praia Morena
425,Sola,VU,82.09,moderate rain,-13.8833,167.55,Leumerus Bungalows
426,Prachuap Khiri Khan,TH,72.45,few clouds,12.2167,99.75,สมบัติยาย
432,Champerico,GT,84.2,clear sky,14.3,-91.9167,"Hotel y restaurante ""El Diamante"""
433,Mossendjo,CG,74.75,broken clouds,-2.9506,12.7261,HOTEL D'ASSISE
436,Balaghat,IN,71.46,broken clouds,21.8,80.1833,Hotel celebration
439,Las Rosas,AR,72.39,broken clouds,-32.4766,-61.5804,Hotel El Portal
443,Salima,MW,72.63,scattered clouds,-13.7804,34.4587,YAMIKANI LODGE
444,Frederico Westphalen,BR,82.99,few clouds,-27.3592,-53.3944,Hotel Palace Frederico
445,Sakhipur,BD,82.4,haze,24.3,90.1833,জুনিয়র এফ.সি-ক্লাব-২
447,Vanimo,PG,77.72,broken clouds,-2.6741,141.3028,Vahmoneh Lodge Vanimo
449,Vaitape,PF,81.97,few clouds,-16.5167,-151.75,Conrad Bora Bora Nui
451,Mindelo,CV,77.0,scattered clouds,16.8901,-24.9804,Hotel Gaudi
453,Jati,PK,74.7,clear sky,24.3539,68.2671,Cafe Lala Rehan Restaurant
454,Chiriqui,PA,87.8,few clouds,8.4,-82.3167,Tucan Lodge Panama
455,Buraydah,SA,82.4,clear sky,26.326,43.975,فندق راحة السلام
456,Malanje,AO,71.19,broken clouds,-9.5402,16.340999999999998,Malanje Hotel
457,Cap Malheureux,MU,77.0,clear sky,-19.9842,57.6142,Pereybere Hotel & Spa
461,Naifaru,MV,83.25,scattered clouds,5.4444,73.3657,Naifaru Residence Guest House
462,Itubera,BR,79.45,overcast clouds,-13.7322,-39.1492,Pousada Baixo Sul.
463,Faridpur,BD,82.4,moderate rain,23.6,89.8333,Progoti hostel
466,Bonthe,SL,85.05,clear sky,7.5264,-12.505,Bonthe Holiday Village
471,Buchanan,LR,86.0,light rain,5.8808,-10.0467,Kamaneahn Hotel Inc
474,Ibirataia,BR,85.21,overcast clouds,-14.0669,-39.6406,Pousada e Restaurante Rancho Nativo
477,Bubaque,GW,76.6,clear sky,11.2833,-15.8333,"Casa Dora, Bubaque"
478,Gua Musang,MY,72.86,clear sky,4.8823,101.9644,Mines Inn Hotel
481,Acapulco,MX,82.4,clear sky,16.8634,-99.8901,HS Hotsson Smart Acapulco
482,Vilhena,BR,77.0,broken clouds,-12.7406,-60.1458,Hotel Mirage
484,Bayshore Gardens,US,70.0,broken clouds,27.4253,-82.5904,Ramada by Wyndham Sarasota Waterfront
486,Buala,SB,79.05,light rain,-8.145,159.5921,Maringe Lagoon Lodge
489,Mankono,CI,93.74,few clouds,8.0586,-6.1897,Hotel Cajoux
491,Eldorado,BR,85.42,broken clouds,-23.7869,-54.2836,Villa Verde Hotel
494,Witu,KE,82.4,clear sky,-2.3889,40.4382,New City Guest House
495,Bairiki,KI,80.6,few clouds,1.3292,172.9752,Tarawa Boutique Hotel
497,Tatawin,TN,71.6,clear sky,32.9297,10.4518,Sangho Privilege Tataouine
503,Rio Casca,BR,81.57,broken clouds,-20.2261,-42.6508,Hotel Morada do Sol
504,Mocuba,MZ,74.55,light rain,-16.8392,36.9856,Phama Lodge
505,Abu Dhabi,AE,80.6,clear sky,24.4667,54.3667,Ramee Garden Hotel Apartments
506,Cabedelo,BR,86.0,broken clouds,-6.9811,-34.8339,Hotel Pigalle
507,Hirara,JP,71.67,clear sky,24.8,125.2833,Hotel Atoll Emerald Miyakojima
508,Manokwari,ID,78.42,light rain,-0.8667,134.0833,Swiss Belhotel Manokwari
512,Auki,SB,77.45,broken clouds,-8.7676,160.7034,Auki Motel
514,Palmeiras De Goias,BR,80.58,overcast clouds,-16.805,-49.9258,Hotel Água Virada
515,Lazaro Cardenas,MX,86.61,clear sky,17.9583,-102.2,Hotel Quinta Antigua
518,Bentiu,SS,92.64,broken clouds,9.2333,29.8333,Mandela hôtel
519,Dolores,AR,74.48,light rain,-36.3132,-57.6792,Apart Hotel - Arianos
522,Ormara,PK,76.12,clear sky,25.2088,64.6357,Crystal Beach and Camping Resort Ormara
526,Tignere,CM,71.04,overcast clouds,7.3667,12.65,SADECK
530,Promissao,BR,85.6,scattered clouds,-21.5367,-49.8581,Recanto Monte Cristo
534,Pyapon,MM,71.94,clear sky,16.2833,95.6833,Aung Naing Thu Motel
541,Jalu,LY,77.43,clear sky,29.0331,21.5482,صاحبة الفخامة
542,Chiredzi,ZW,77.09,clear sky,-21.05,31.6667,The Nesbitt Arms
544,Manavalakurichi,IN,86.0,haze,8.1333,77.3,Udaya Boys Hostel
545,Bela,IN,79.48,broken clouds,25.9333,81.9833,Raj Bhawan
549,Pringsewu,ID,74.84,overcast clouds,-5.3582,104.9744,Urban Style by Front One
551,Samarai,PG,81.95,clear sky,-10.6167,150.6667,Nuli Sapi
554,Conakry,GN,80.01,clear sky,9.538,-13.6773,Riviera Royal Hotel
559,Roebourne,AU,78.13,clear sky,-20.7833,117.1333,Harding River Caravan Park
560,Kawalu,ID,72.75,overcast clouds,-7.3817,108.2082,KOSAN UNGU UNSIK
561,Tabalosos,PE,82.4,overcast clouds,-6.35,-76.6833,Proyecto de Lounge Nazareth
562,Asosa,ET,75.36,overcast clouds,10.0667,34.5333,Blendana Hotel Assosa
564,San Pedro,PH,82.99,few clouds,14.35,121.0167,OYO 412 Viewfort Venue
567,Maraba,BR,82.4,light rain,-5.3686,-49.1178,Hotel Del Principe
568,Harper,LR,82.69,clear sky,4.375,-7.7169,Screensaver
572,Rocha,UY,72.32,clear sky,-34.4833,-54.3333,Beleza Pura B&B
589,Sechura,PE,84.38,overcast clouds,-5.5569,-80.8222,Hospedaje Costa Bella
592,Luanda,AO,86.0,few clouds,-8.8368,13.2343,LANDU MARINEZA LUFUANDU TONI
593,Reconquista,AR,78.48,broken clouds,-29.15,-59.65,Grand Hotel
595,Ugoofaaru,MV,83.08,scattered clouds,5.6667,73.0,Ungoofaaru Inn
597,Jizan,SA,84.2,few clouds,17.3333,42.6667,شهدان. ابوالحجر
600,Carora,VE,85.62,scattered clouds,10.1755,-70.0827,Hotel Irpinia
601,Port Blair,IN,79.92,clear sky,11.6667,92.75,Welcomhotel Bay Island Port Blair
605,Abu Zabad,SD,89.28,broken clouds,12.35,29.25,حامد محمد نور
606,Hoskote,IN,75.2,clear sky,13.0669,77.7983,Hotel LG PARK
607,Marica,BR,87.8,few clouds,-22.9194,-42.8186,Marica Hills
610,Camana,PE,75.29,broken clouds,-16.6228,-72.7111,Hostal Morales
613,Daru,PG,78.35,overcast clouds,-9.0763,143.2092,Daru Lodge
614,Farafangana,MG,78.04,overcast clouds,-22.8167,47.8333,Miarina
618,Riyadh,SA,86.0,clear sky,24.6877,46.7219,InterContinental Riyadh
619,Sandakan,MY,80.6,few clouds,5.8402,118.1179,Hotel Sandakan
624,Champasak,LA,80.4,scattered clouds,14.75,106.0,Kiat Ngong Wetland BUNGALOW
625,Banda Aceh,ID,79.93,overcast clouds,5.5577,95.3222,Sulthan Hotel International
626,Le Port,RE,78.8,overcast clouds,-20.9373,55.2919,Villa Maido
627,Road Town,VG,82.4,few clouds,18.4167,-64.6167,"ZINGARA 76ft Catamaran, full crew-all included"
629,Kloulklubed,PW,77.0,broken clouds,7.0419,134.2556,Storyboard Beach Resort
632,Atambua,ID,73.17,scattered clouds,-9.1061,124.8925,Pastori 1 Jemaat Polycarpus
633,Vallenar,CL,76.84,scattered clouds,-28.5708,-70.7581,Humacao Bed & Breakfast
635,Ixtapa,MX,73.4,clear sky,20.7,-105.2,Hotel Plaza Providencia
636,Muisne,EC,84.2,scattered clouds,0.6,-80.0333,Quinta Samay
638,Barreiras,BR,81.41,light rain,-12.1528,-44.99,Príncipe Hotel
639,Bandar-E Lengeh,IR,77.0,clear sky,26.5579,54.8807,کافی نت پارس
640,Lotofaga,WS,73.4,light rain,-13.9764,-171.8578,Sataoa Beach Fales
644,Santa Clara,CU,84.2,light rain,22.4,-79.9667,El Carmen
645,Rio Grande,BR,75.2,broken clouds,-32.035,-52.0986,Hotel Atlântico Rio Grande
646,Porto Novo,BJ,86.0,few clouds,6.4965,2.6036,Tour Eiffel Hotel Benin
647,Oranjestad,AW,78.35,broken clouds,12.524000000000001,-70.027,Divi Village Golf & Beach Resort
649,Bikaner,IN,75.11,clear sky,28.0167,73.3,Karina Guest House
651,Sao Sebastiao,BR,82.76,few clouds,-23.76,-45.4097,Hotel Recanto dos Pássaros
654,Galle,LK,79.29,overcast clouds,6.0367,80.217,Amangalla
655,Nishihara,JP,71.6,scattered clouds,26.1842,127.7558,Minshuku Agaihama
657,Barbacena,BR,73.4,broken clouds,-21.2258,-43.7736,Itale Apart Hotel
658,Nsanje,MW,75.25,light rain,-16.92,35.262,Nsanje Discovery Lodge
659,Humaita,BR,79.83,overcast clouds,-7.5061,-63.0208,Corrêa Hotel
660,Santarem,BR,82.4,broken clouds,-2.4431,-54.7083,Ecotur Lodge
666,Anuradhapura,LK,72.68,overcast clouds,8.3565,80.4173,Nilketha Villa Eco Hotel
667,Tautira,PF,78.8,light rain,-17.7333,-149.15,Pension Oaoa
668,Mananjary,MG,77.43,light rain,-21.2167,48.3333,Vahiny Lodge
669,Jalalabad,AF,71.38,scattered clouds,34.4265,70.4515,انصاف چهاردهي هوټل
671,Bang Saphan,TH,75.69,clear sky,11.2126,99.5117,Ladawan Boutique Hotel
673,Karratha,AU,78.64,clear sky,-20.7377,116.8463,ibis Styles Karratha
674,Takoradi,GH,82.62,overcast clouds,4.8845,-1.7554,Raybow International Hotel
675,Ende,ID,78.73,light rain,-8.8432,121.6623,Dwi Putra Hotel - Ende
676,Playas,EC,80.83,overcast clouds,-2.6333,-80.3833,Hostal Promenade
677,Touros,BR,86.0,scattered clouds,-5.1989,-35.4608,INN NEW HORIZON
680,Amuntai,ID,75.85,heavy intensity rain,-2.4177,115.2494,Hotel Balqis
683,Ayolas,PY,91.54,clear sky,-27.4,-56.9,Hotel Ayolas
684,Huarmey,PE,77.72,scattered clouds,-10.0681,-78.1522,Hotel Miramar
687,Kirakira,SB,79.27,overcast clouds,-10.4544,161.9205,SanBiz Lodge
688,Melong,CM,74.16,light rain,5.1218,9.9614,Washinton City Mordern Bar And Motel
692,Afua,BR,77.85,overcast clouds,-0.1567,-50.3867,Hotel Dias
